[
	{
		"id":1,
		"lat":17.4229081, 
		"lng":78.3778081,
		"Name": "Volkswagen Service Center Khajaguda",
		"Address": "7-52/27, LIG Chitrapuri Colony, Prashanthi Hills, Manikonda, Hyderabad, Telangana 500034",
		"Phone": "+918977547575",
		"isTiedUp": true
	},
	{
		"id":2,
		"lat":17.4317094, 
		"lng":78.3777679,
		"Name": "Varun Motors - Maruti Suzuki Workshop ",
		"Address": "No. 68, Plot No. 1354 Road, Near, Jubilee Hills Check Post Rd, Beside Indian Oil Petrol, Hyderabad, Telangana 500033",
		"Phone": "+914023607071",
		"isTiedUp": true
	},
	{
		"id":3,
		"lat":17.4228929, 
		"lng":78.3777301,
		"Name": "Hyundai Service Center",
		"Address": "124, Rd Number 36, Aditya Enclave, Venkatagiri, Jubilee Hills, Hyderabad, Telangana 500033",
		"Phone": "+918800994892",
		"isTiedUp": true
	},
	{
		"id":4,
		"lat":17.4228929, 
		"lng":78.3777301,
		"Name": "TVS Service Sri Laxmi Ganpati Motors",
		"Address": "Rajeev nagar, Gachibowli, Hyderabad, Telangana 500081",
		"Phone": "+917780507373",
		"isTiedUp": false
	},
	{
		"id":5,
		"lat":17.4229366, 
		"lng":78.3777579,
		"Name": "Om Auto Krafts",
		"Address": "# 7-2-B35 & 36/A, Industrial Estate, Behind Andhra Bank, Sanath Nagar, Hyderabad, Telangana 500018",
		"Phone": "+914023816173",
		"isTiedUp": false
	}
]